{"data":{"allOpening":{"group":[{"fieldValue":"1712289600000","totalCount":18,"nodes":[{"id":"933e97fb-42d4-5dd0-8b5f-18bcbf0eb162","name":"WhiteBox","address":"9 Avenue B","description":"","date":1712289600000,"lat":40.721697,"long":-73.983417},{"id":"14501aba-e5c1-5b09-a803-0cdc39b625b1","name":"Soft Network","address":"636 Broadway","description":"","date":1712289600000,"lat":40.726399,"long":-73.99593},{"id":"6147c47d-4a3f-5610-8c12-03d5fdb690a4","name":"Ulterior","address":"424 Broadway #601","description":"","date":1712289600000,"lat":40.719339,"long":-74.002156},{"id":"9afd0040-e40d-5a84-afd9-35556ba058b6","name":"GR Gallery","address":"255 Bowery YY RSVP link in our bio","description":"","date":1712289600000,"lat":40.7184,"long":-73.9866},{"id":"b29ea787-f32f-5b8d-8e0b-64fdf59e5a1d","name":"Satellite Art Show","address":"279 Broome St","description":"(5-8 pm) WV","date":1712289600000,"lat":40.718378,"long":-73.991344},{"id":"b9da2401-4fa4-572b-b484-0b92fbdf5a16","name":"Hannah Traore Gallery","address":"150 Orchard St WV","description":"","date":1712289600000,"lat":40.720687,"long":-73.988771},{"id":"f016be3d-2f75-58fc-ad91-92c0455e61a4","name":"Anonymous Gallery","address":"136 Baxter St","description":"","date":1712289600000,"lat":40.71864,"long":-73.998793},{"id":"ff6c28c9-1c42-590b-af6d-3709426bb236","name":"Long Story Short","address":"52 & 54E Henry St","description":"","date":1712289600000,"lat":40.713265,"long":-73.989815},{"id":"a47b3797-74b8-5381-b265-fde680a902e5","name":"LatchKey Gallery","address":"173 Henry St V","description":"(6-9 pm)","date":1712289600000,"lat":40.713636,"long":-73.988864},{"id":"5db74613-b5e2-5db4-916f-dfcb7bc5e254","name":"New Collectors","address":"191 Henry St","description":"","date":1712289600000,"lat":40.713868,"long":-73.989524},{"id":"c1d5b82b-cc8b-5cf6-9223-f9d6b7ead4b8","name":"Chapter NY","address":"60 Walker St","description":"","date":1712289600000,"lat":40.718903,"long":-74.002847},{"id":"926c693c-0b3e-5225-a075-07bac29dd718","name":"52 Walker","address":"52 Walker St","description":"","date":1712289600000,"lat":40.719171,"long":-74.003238},{"id":"278b9d46-56ba-54ed-8851-592f4b417ebf","name":"GRIMM","address":"54 White St VW Ip","description":"","date":1712289600000,"lat":40.718519,"long":-74.003729},{"id":"5601d501-1dc2-5e11-928f-14128a75a115","name":"Deanna Evans Projects","address":"373 Broadway #E15 W","description":"","date":1712289600000,"lat":40.717954,"long":-74.003573},{"id":"3a41ee3a-d33d-58b2-9e17-0ae1942e6875","name":"Klaus von Nichtssagend","address":"87 Franklin St","description":"","date":1712289600000,"lat":40.717879,"long":-74.004873},{"id":"04688a2a-a8b8-51af-836d-b19bbf0842f6","name":"Duane Thomas Gallery","address":"137 W Broadway V ®","description":"","date":1712289600000,"lat":40.716785,"long":-74.007997},{"id":"d61338c1-63cc-5758-93cd-8f25ff7b0d60","name":"Artists Don't School","address":"116 Montague St","description":"(7-10 pm) W","date":1712289600000,"lat":40.69476,"long":-73.994839},{"id":"d92e46c7-1091-510a-889a-652d05db5da6","name":"SHY Studio","address":"75 Stewart Ave","description":"(7-11 pm) & In","date":1712289600000,"lat":40.708222,"long":-73.926172}]},{"fieldValue":"1712376000000","totalCount":12,"nodes":[{"id":"182964c4-b12d-510b-bcb9-ad352d2b0678","name":"Edwynn Houk","address":"745 5th Ave 4th FI","description":"(3-5 pm)","date":1712376000000,"lat":40.763464,"long":-73.97364},{"id":"2ecc8aac-086b-5ff6-a48a-82ae37e89989","name":"Yancey Richardson","address":"525 W 22nd St","description":"(2-6 pm)","date":1712376000000,"lat":40.747651,"long":-74.005628},{"id":"e48cb944-dd5d-5636-84ee-96e57468f79a","name":"Paula Cooper Gallery","address":"534 W 21st St","description":"","date":1712376000000,"lat":40.746971,"long":-74.006864},{"id":"f3597a22-161e-5136-a62f-eb42fda06170","name":"Modus 10","address":"7 Wooster St @","description":"","date":1712376000000,"lat":40.721299,"long":-74.003773},{"id":"23355bb8-c7dd-5582-9e0c-92cd15ed31b4","name":"Ki Smith Gallery","address":"170 Forsyth St","description":"(6-9 pm)","date":1712376000000,"lat":40.721186,"long":-73.991197},{"id":"c590abd5-4496-532d-98fa-1c6d66937eec","name":"Satellite Art Show","address":"279 Broome St","description":"(5-8 pm)","date":1712376000000,"lat":40.718378,"long":-73.991344},{"id":"b9927b06-0ba8-5e4e-bf4f-dc6ce72f2732","name":"56 Henry","address":"56 Henry St","description":"","date":1712376000000,"lat":40.7128,"long":-73.995178},{"id":"6bd38376-3cb2-5967-afeb-f837dadda00e","name":"WWW.WILLSHOTT","address":"17 Pike St","description":"","date":1712376000000,"lat":40.713457,"long":-73.992204},{"id":"d66ef4e5-334b-5f66-9915-e56cd9709051","name":"FiveMyles","address":"558 St. Johns PI","description":"(5:30-8 pm)","date":1712376000000,"lat":40.672936,"long":-73.960374},{"id":"ba9970e6-51fe-56d1-bb9a-cb396ae76945","name":"The Empty Circle","address":"499 3rd Ave","description":"(2-4 pm)","date":1712376000000,"lat":40.66999,"long":-73.992007},{"id":"28921619-083c-5776-a5bb-da10172eb2b0","name":"Artful Souls","address":"105 S 5th St","description":"(3-5:30 pm)","date":1712376000000,"lat":40.71327,"long":-73.956484},{"id":"1f731c7e-2e72-5e3a-a5ac-71420403201d","name":"Artego","address":"32-88 48th St","description":"","date":1712376000000,"lat":40.755906,"long":-73.912664}]},{"fieldValue":"1712808000000","totalCount":16,"nodes":[{"id":"57c68b55-de19-5b51-b538-d3e0e340caa5","name":"David Zwirner","address":"34 E 69th St","description":"","date":1712808000000,"lat":40.769511,"long":-73.966453},{"id":"705c0562-76af-55e9-9711-aa74e566e981","name":"Anton Kern","address":"16 E 55th St","description":"","date":1712808000000,"lat":40.761052,"long":-73.973991},{"id":"82b61995-c4cb-5265-bec9-9c400c0df480","name":"Spirit Del Art","address":"547 W 27th St","description":"","date":1712808000000,"lat":40.751281,"long":-74.004388},{"id":"f02a55d4-0f0f-511c-b9d1-fcdbf8a38821","name":"Ross + Kramer","address":"515 W 27th St","description":"","date":1712808000000,"lat":40.750746,"long":-74.003131},{"id":"ef99757e-0666-5613-833b-7495d73fe343","name":"Satchel Projects","address":"526 W 26th St WV","description":"","date":1712808000000,"lat":40.750015,"long":-74.004344},{"id":"43d0fd6c-8b85-5b51-a2d7-822734abd35b","name":"VillageOneArt","address":"150 W 25th St #403 W","description":"","date":1712808000000,"lat":40.744801,"long":-73.993867},{"id":"c364e153-3bdb-57c9-878f-9163d192348b","name":"AHA Underground @ Jim Kempner","address":"501 W 23rd St","description":"","date":1712808000000,"lat":40.747958,"long":-74.00427},{"id":"0638c47c-315d-531a-8c84-40b2b4017d36","name":"David Zwirner","address":"533 W 19th St","description":"","date":1712808000000,"lat":40.745968,"long":-74.00744},{"id":"193d5085-a40e-500e-bbaf-0196fe2b9670","name":"Slag Gallery","address":"522 W 19th St","description":"","date":1712808000000,"lat":40.745633,"long":-74.007169},{"id":"9ffaa469-6df2-5e34-80e0-09fb31d71053","name":"Shelter","address":"127 Eldridge St","description":"","date":1712808000000,"lat":40.718724,"long":-73.991803},{"id":"a2f11920-1f20-507c-8f71-0f13205519a8","name":"The Front Gallery","address":"131 Chrystie St","description":"(6-9 pm)","date":1712808000000,"lat":40.719489,"long":-73.99347},{"id":"1b0e2370-6ade-52b6-b2ee-9b46ebfc1da8","name":"Satellite Art Show","address":"279 Broome St","description":"(5-8 pm) W","date":1712808000000,"lat":40.718378,"long":-73.991344},{"id":"8dbb6a02-82a7-5cd3-bdc1-92376c76854f","name":"Susan Eley","address":"190 Orchard St","description":"","date":1712808000000,"lat":40.722112,"long":-73.988054},{"id":"9a70391b-c8c9-51cc-8f7c-d66a0e3bce75","name":"Frosch&Co","address":"34 E Broadway","description":"","date":1712808000000,"lat":40.713688,"long":-73.996387},{"id":"ecd4a9cf-5816-56a7-97ed-4674208bcd6e","name":"Kai Matsumiya","address":"264 Canal St","description":"","date":1712808000000,"lat":40.718578,"long":-74.001258},{"id":"ffb0b363-a685-5b74-afef-286bc748e2fe","name":"Nicelle Beauchene","address":"7 Franklin PI","description":"","date":1712808000000,"lat":40.718006,"long":-74.0037}]},{"fieldValue":"1712894400000","totalCount":21,"nodes":[{"id":"f648e14e-6e6c-59e0-81b1-afd29b8b5486","name":"The Bronx Museum","address":"1040 Grand Concourse","description":"(7-9 pm) @","date":1712894400000,"lat":40.831055,"long":-73.91988},{"id":"c81ef127-4451-53e0-a930-9c1a674fb7e6","name":"Edgar Allen Poe Cottage","address":"2640 Grand Concourse","description":"","date":1712894400000,"lat":40.8651,"long":-73.89469},{"id":"22411ea5-de32-5638-a488-32b376dedcda","name":"303 Gallery","address":"555 W 21st St /¢","description":"","date":1712894400000,"lat":40.747565,"long":-74.007443},{"id":"e5693ea5-5ed8-5f19-b4d0-c06d2d1b0ca6","name":"Tanya Bonakdar Gallery","address":"521 W 21st St","description":"","date":1712894400000,"lat":40.747075,"long":-74.00619},{"id":"04cdbb61-e2f8-585e-9831-f8049946dc85","name":"Palo Gallery","address":"30 Bond St","description":"","date":1712894400000,"lat":40.726481,"long":-73.993455},{"id":"b641ae25-dbec-5ec5-b70b-3929de82f7fd","name":"Helm Contemporary","address":"132 Bowery 3rd FI ¥Y","description":"","date":1712894400000,"lat":40.7184,"long":-73.9866},{"id":"d015621c-7517-5a3a-860f-84635bf7e2ce","name":"Simone Subal","address":"131 Bowery 2nd Fl","description":"","date":1712894400000,"lat":40.718566,"long":-73.994535},{"id":"143ee03b-552b-546b-adf3-fcca864910e7","name":"Satellite Art Show","address":"279 Broome St","description":"(5-8 pm) ¥¢","date":1712894400000,"lat":40.718378,"long":-73.991344},{"id":"d2f8fef7-25c2-5e6e-bce2-0db97b62b8db","name":"Kuma Lisa Gallery","address":"56 Eldridge St","description":"","date":1712894400000,"lat":40.716197,"long":-73.992783},{"id":"c5625ede-9b8c-5df1-96cd-96363ffa74df","name":"Management","address":"39 E Broadway #404","description":"","date":1712894400000,"lat":40.713374,"long":-73.996153},{"id":"1c6fea6f-e4b1-5a78-bfcc-9fbc693f5d2c","name":"King's Leap","address":"105 Henry St","description":"","date":1712894400000,"lat":40.713327,"long":-73.992135},{"id":"96c37a4b-6715-5272-845b-fc88021fa8c0","name":"Foreign & Domestic","address":"24 Rutgers St","description":"","date":1712894400000,"lat":40.713115,"long":-73.990275},{"id":"152e4f21-be2f-5d72-a19a-d5635dbbeb42","name":"George Adams Gallery","address":"38 Walker St","description":"","date":1712894400000,"lat":40.719439,"long":-74.003835},{"id":"28f69ea3-e2d3-5dd1-abcb-99e386857d31","name":"PPOW","address":"392 Broadway","description":"","date":1712894400000,"lat":40.718263,"long":-74.002424},{"id":"a25ccf23-c46b-5d19-94d7-0a44c1c6426c","name":"Jack Barrett Gallery","address":"89 Franklin St 1@","description":"","date":1712894400000,"lat":40.717953,"long":-74.004914},{"id":"e2525c2c-7c1d-558e-884c-0baab97c5deb","name":"A Space","address":"13 Grattan St #402","description":"","date":1712894400000,"lat":40.705597,"long":-73.932655},{"id":"94705d41-cb73-5fd7-bad5-50e635a0e02f","name":"Sharpe-Walentas Open Studios","address":"20 Jay St #720","description":"(6-9 pm)","date":1712894400000,"lat":40.704194,"long":-73.986945},{"id":"9080037c-2a5b-5d62-bc40-578d8692b70a","name":"Bob's Gallery","address":"1470 Bushwick Ave #1R","description":"(6-9 pm)","date":1712894400000,"lat":40.683205,"long":-73.907574},{"id":"a82c359b-bec0-5cbd-ad87-e3b35ea6e0ee","name":"NARS Foundation","address":"201 46th St 4th Fl","description":"","date":1712894400000,"lat":40.643012,"long":-73.998836},{"id":"5bce5529-70fd-52d1-a821-841047e4361d","name":"Picto Gallery","address":"77 Washington Ave 3rd Fl","description":"(6:30-11 pm) @ #&","date":1712894400000,"lat":40.696378,"long":-73.967215},{"id":"3062cfd0-1b22-5256-9d06-0ea751947127","name":"Greenpoint Gallery","address":"390 McGuinness Blvd","description":"(8 pm-12 am) ¥Y","date":1712894400000,"lat":40.736339,"long":-73.952359}]},{"fieldValue":"1712980800000","totalCount":10,"nodes":[{"id":"2f6d11ec-e781-5544-8530-30b6e94e2cb8","name":"theBlanc","address":"15 E 40th St #200","description":"(4-7 pm)","date":1712980800000,"lat":40.751903,"long":-73.980582},{"id":"50d8877f-06b1-5242-91be-3cb96ef783d1","name":"Gallery Henoch","address":"555 W 25th St","description":"(5-7 pm)","date":1712980800000,"lat":40.750059,"long":-74.005353},{"id":"3585fd33-3c89-54b9-9591-3104b9a698d8","name":"Andrew Edlin Gallery","address":"212 Bowery","description":"(4-6 pm)","date":1712980800000,"lat":40.721745,"long":-73.993786},{"id":"111df4e9-59cd-5ccb-966c-7b945fc708b2","name":"Satellite Art Show","address":"279 Broome St","description":"(5-8 pm) ¥¢","date":1712980800000,"lat":40.718378,"long":-73.991344},{"id":"7aed0ac6-0cd2-5bee-9f00-50ee76b11eed","name":"Sitting Room Gallery","address":"195 Henry St","description":"(6-10 pm)","date":1712980800000,"lat":40.713725,"long":-73.98777},{"id":"d9b4f3b1-fae3-52f9-981e-780c10841e98","name":"DETOX GALLERY","address":"393 Broadway 2nd Fl","description":"(6-10 pm) RSVP","date":1712980800000,"lat":40.718539,"long":-74.002953},{"id":"a89b72d4-37e2-5b01-be71-ebad09b55684","name":"link in our bio","address":"use code THIRSTYGAL for discount na","description":"","date":1712980800000,"lat":40.748472,"long":-73.985668},{"id":"4e937f24-2913-5f8a-a870-f6b288fc4abb","name":"Tiger Strikes Asteroid","address":"1329 Willoughby Ave","description":"","date":1712980800000,"lat":40.706198,"long":-73.921183},{"id":"52bfb859-36e6-5c78-a7f4-98eacfde9495","name":"Living Skin","address":"61 Wyckoff Ave","description":"(closing reception) *Y","date":1712980800000,"lat":40.70576,"long":-73.92113},{"id":"112366e7-eb93-5d0e-83d6-deb602e5fdfd","name":"Yi Gallery","address":"254 36th St","description":"(3-6 pm)","date":1712980800000,"lat":40.656312,"long":-74.008087}]}]}}}