{"data":{"allOpening":{"edges":[{"node":{"id":"adffcdfd-7ad3-558e-b016-bf09d77a2375","name":"Edwynn Houk","address":"745 5th Ave 4th Fl","description":"(3-5 pm)","date":986529600000,"lat":40.763286,"long":-73.973321}},{"node":{"id":"ff5c4402-6ba3-576f-83f1-e1145936b8eb","name":"Yancey Richardson","address":"525 W 22nd St","description":"(2-6 pm)","date":986529600000,"lat":40.747651,"long":-74.005628}},{"node":{"id":"dcef1968-ac14-539f-8457-f9ab4fda9045","name":"Paula Cooper Gallery","address":"534 W 21st St","description":"","date":986529600000,"lat":40.746971,"long":-74.006864}},{"node":{"id":"7abe11ec-6998-5289-a5bf-d9bb2cd4c4da","name":"Modus 10","address":"7 Wooster St &","description":"","date":986529600000,"lat":40.721083,"long":-74.003614}},{"node":{"id":"3158baf0-ecf9-53c3-b7d2-a833f17444f5","name":"Ki Smith Gallery","address":"170 Forsyth St","description":"(6-9 pm)","date":986529600000,"lat":40.721186,"long":-73.991197}},{"node":{"id":"7fd5206a-1293-546b-9cff-055d6b624cdb","name":"Satellite Art Show","address":"279 Broome St","description":"(5-8 pm)","date":986529600000,"lat":40.718378,"long":-73.991344}},{"node":{"id":"15629a85-e132-5cbe-ae3d-dc78b1500321","name":"56 Henry","address":"56 Henry St","description":"","date":986529600000,"lat":40.7128,"long":-73.995178}},{"node":{"id":"a9699146-8cd9-5dbb-adc7-c8ad3e0f4df3","name":"WWW.WILLSHOTT","address":"17 Pike St","description":"","date":986529600000,"lat":40.69957,"long":-73.938649}},{"node":{"id":"af6bd178-3a55-5249-b04c-817b4266f3b2","name":"FiveMyles","address":"558 St. Johns PI","description":"(5:30-8 pm)","date":986529600000,"lat":40.672936,"long":-73.960374}},{"node":{"id":"f6df82fb-9889-5c43-bb40-162b84ee7557","name":"The Empty Circle","address":"499 3rd Ave","description":"(2-4 pm)","date":986529600000,"lat":40.745425,"long":-73.978045}},{"node":{"id":"74ed45b0-f9ee-53a1-a82b-88aaaf10071c","name":"Artful Souls","address":"105 S 5th St","description":"(3-5:30 pm)","date":986529600000,"lat":40.711519,"long":-73.964291}},{"node":{"id":"c1f55e6f-258d-59cb-869d-f22ffbefa5ee","name":"Artego","address":"32-88 48th St","description":"","date":986529600000,"lat":40.755906,"long":-73.912664}}]}}}