{"data":{"allOpening":{"nodes":[{"id":"07893bc3-fa35-5dda-b5ac-99de6c07baba","name":"The Bronx Museum","address":"1040 Grand Concourse","description":"(7-9 pm) @","date":987048000000,"lat":40.831055,"long":-73.91988},{"id":"cfdea342-314b-5218-9fb1-24627c0b8a71","name":"Edgar Allen Poe Cottage","address":"2640 Grand Concourse","description":"","date":987048000000,"lat":40.8651,"long":-73.89469},{"id":"53c207c9-69d1-5fac-8151-cdf03c38ca60","name":"303 Gallery","address":"555 W 21st St /¢","description":"","date":987048000000,"lat":40.747565,"long":-74.007443},{"id":"a6ba843f-d72b-5184-bdb4-ef23ff300d45","name":"Tanya Bonakdar Gallery","address":"521 W 21st St","description":"","date":987048000000,"lat":40.747075,"long":-74.00619},{"id":"d3e7bb00-e68c-5260-85aa-428f651fc304","name":"Palo Gallery","address":"30 Bond St","description":"","date":987048000000,"lat":40.726481,"long":-73.993455},{"id":"b8e319d3-78a7-50de-9709-445ac3107859","name":"Helm Contemporary","address":"132 Bowery 3rd FI ¥Y","description":"","date":987048000000,"lat":40.7184,"long":-73.9866},{"id":"52e946c6-954c-5e02-935a-5c1cfe6d8d85","name":"Simone Subal","address":"131 Bowery 2nd Fl","description":"","date":987048000000,"lat":40.718566,"long":-73.994535},{"id":"21fe9ac5-4c94-51f3-9147-efbe5f9d2a38","name":"Satellite Art Show","address":"279 Broome St","description":"(5-8 pm) ¥¢","date":987048000000,"lat":40.718378,"long":-73.991344},{"id":"5ac0e257-041a-5938-b8e3-3ad2aef298d6","name":"Kuma Lisa Gallery","address":"56 Eldridge St","description":"","date":987048000000,"lat":40.716197,"long":-73.992783},{"id":"573599aa-d1d2-5afd-8e49-124c69c58e0a","name":"Management","address":"39 E Broadway #404","description":"","date":987048000000,"lat":40.713374,"long":-73.996153},{"id":"53b9439d-9378-5082-9262-95b08681b022","name":"King's Leap","address":"105 Henry St","description":"","date":987048000000,"lat":40.713327,"long":-73.992135},{"id":"195a0200-4cfe-501f-8d68-ce663d07915c","name":"Foreign & Domestic","address":"24 Rutgers St","description":"","date":987048000000,"lat":40.713115,"long":-73.990275},{"id":"08881a26-d7b5-5c84-a694-f4ae76f37d0c","name":"George Adams Gallery","address":"38 Walker St","description":"","date":987048000000,"lat":40.719439,"long":-74.003835},{"id":"bc02b4e5-440d-5e6a-b2c7-4e3348e9e245","name":"PPOW","address":"392 Broadway","description":"","date":987048000000,"lat":40.718263,"long":-74.002424},{"id":"6ebc17a9-132a-5448-a99e-abf43685c732","name":"Jack Barrett Gallery","address":"89 Franklin St 1@","description":"","date":987048000000,"lat":40.717953,"long":-74.004914},{"id":"02a6e381-5765-5efb-9256-4dbd15e51e62","name":"A Space","address":"13 Grattan St #402","description":"","date":987048000000,"lat":40.705597,"long":-73.932655},{"id":"ce3045d4-a3fc-5842-993f-48d5de372c95","name":"Sharpe-Walentas Open Studios","address":"20 Jay St #720","description":"(6-9 pm)","date":987048000000,"lat":40.704194,"long":-73.986945},{"id":"3bd104bf-4304-5d35-ae6e-75d2065c49aa","name":"Bob's Gallery","address":"1470 Bushwick Ave #1R","description":"(6-9 pm)","date":987048000000,"lat":40.683205,"long":-73.907574},{"id":"5f3bab5f-088e-5ed4-90f2-5770d3acb120","name":"NARS Foundation","address":"201 46th St 4th Fl","description":"","date":987048000000,"lat":40.643012,"long":-73.998836},{"id":"ff277d18-fb62-570c-825a-9ce829cbc0ef","name":"Picto Gallery","address":"77 Washington Ave 3rd Fl","description":"(6:30-11 pm) @ #&","date":987048000000,"lat":40.696378,"long":-73.967215},{"id":"6ee27212-ed6c-50ba-9a34-31a615e12e7f","name":"Greenpoint Gallery","address":"390 McGuinness Blvd","description":"(8 pm-12 am) ¥Y","date":987048000000,"lat":40.736339,"long":-73.952359},{"id":"773cb903-cfa3-579e-9488-5822574a81e0","name":"David Zwirner","address":"34 E 69th St","description":"","date":986961600000,"lat":40.769511,"long":-73.966453},{"id":"fed5877a-d989-5ae3-94e2-73fa2d7ac10d","name":"Anton Kern","address":"16 E 55th St","description":"","date":986961600000,"lat":40.761052,"long":-73.973991},{"id":"f6131ea6-31ea-5fac-a7fe-e291b6cebda1","name":"Spirit Del Art","address":"547 W 27th St","description":"","date":986961600000,"lat":40.751281,"long":-74.004388},{"id":"1f1ef327-8a55-552b-92f1-4dcf7bbb5a8a","name":"Ross + Kramer","address":"515 W 27th St","description":"","date":986961600000,"lat":40.750746,"long":-74.003131},{"id":"b0762435-5726-53f0-9689-45def7abd90e","name":"Satchel Projects","address":"526 W 26th St WV","description":"","date":986961600000,"lat":40.750015,"long":-74.004344},{"id":"2b9b1222-d471-57cf-be99-353c0a56f2fe","name":"VillageOneArt","address":"150 W 25th St #403 W","description":"","date":986961600000,"lat":40.744801,"long":-73.993867},{"id":"acdfc5ef-5679-58a0-849e-c304283eff63","name":"AHA Underground @ Jim Kempner","address":"501 W 23rd St","description":"","date":986961600000,"lat":40.747958,"long":-74.00427},{"id":"7fb591df-90a8-5142-94e3-e9bf91ab4a57","name":"David Zwirner","address":"533 W 19th St","description":"","date":986961600000,"lat":40.745968,"long":-74.00744},{"id":"ec1c42e7-34dd-597a-8eee-7996e3a12dc2","name":"Slag Gallery","address":"522 W 19th St","description":"","date":986961600000,"lat":40.745633,"long":-74.007169},{"id":"1b74d358-338e-577f-b945-3fa30635b29f","name":"Shelter","address":"127 Eldridge St","description":"","date":986961600000,"lat":40.718724,"long":-73.991803},{"id":"8f66dc3d-5940-5d0a-8c05-74466f444b26","name":"The Front Gallery","address":"131 Chrystie St","description":"(6-9 pm)","date":986961600000,"lat":40.719489,"long":-73.99347},{"id":"d18d77c4-8245-5824-a24f-4c0500c109c9","name":"Satellite Art Show","address":"279 Broome St","description":"(5-8 pm) W","date":986961600000,"lat":40.718378,"long":-73.991344},{"id":"1887a642-2607-5add-ba27-fc4aef844812","name":"Susan Eley","address":"190 Orchard St","description":"","date":986961600000,"lat":40.722112,"long":-73.988054},{"id":"7a2ad9da-93b3-533a-aa7b-fb1f0b223ef6","name":"Frosch&Co","address":"34 E Broadway","description":"","date":986961600000,"lat":40.713688,"long":-73.996387},{"id":"aa266179-9c1b-5c65-a57e-2e0cce811345","name":"Kai Matsumiya","address":"264 Canal St","description":"","date":986961600000,"lat":40.718578,"long":-74.001258},{"id":"26defdd1-aeb3-5261-b9e1-8e2796b357d1","name":"Nicelle Beauchene","address":"7 Franklin PI","description":"","date":986961600000,"lat":40.718006,"long":-74.0037},{"id":"efcc1e45-b14f-51d8-9706-414936f5e1fa","name":"Edwynn Houk","address":"745 5th Ave 4th FI","description":"(3-5 pm)","date":986529600000,"lat":40.763464,"long":-73.97364},{"id":"c6a319ee-e5fc-52da-b163-0a80bc92cd2b","name":"Yancey Richardson","address":"525 W 22nd St","description":"(2-6 pm)","date":986529600000,"lat":40.747651,"long":-74.005628},{"id":"5c2eace2-e38a-554a-94d1-db40afabe5de","name":"Paula Cooper Gallery","address":"534 W 21st St","description":"","date":986529600000,"lat":40.746971,"long":-74.006864},{"id":"3664bb5e-1f2d-5185-b6a1-c5d1eec4411d","name":"Modus 10","address":"7 Wooster St @","description":"","date":986529600000,"lat":40.721299,"long":-74.003773},{"id":"d8a0709a-3905-5f04-8d11-07524e783244","name":"Ki Smith Gallery","address":"170 Forsyth St","description":"(6-9 pm)","date":986529600000,"lat":40.721186,"long":-73.991197},{"id":"c1432c10-3f13-50af-a7ad-3b206e2a1346","name":"Satellite Art Show","address":"279 Broome St","description":"(5-8 pm)","date":986529600000,"lat":40.718378,"long":-73.991344},{"id":"e0c6d1a9-0786-5e15-8384-3c0233d0119e","name":"56 Henry","address":"56 Henry St","description":"","date":986529600000,"lat":40.7128,"long":-73.995178},{"id":"b7ca294c-c730-59b9-b88c-cc2f1fb99f85","name":"WWW.WILLSHOTT","address":"17 Pike St","description":"","date":986529600000,"lat":40.713457,"long":-73.992204},{"id":"bf04cbd6-c552-57f9-a658-69de2385266f","name":"FiveMyles","address":"558 St. Johns PI","description":"(5:30-8 pm)","date":986529600000,"lat":40.672936,"long":-73.960374},{"id":"f0a874ac-eb7c-5e5f-aa2a-c9f609af4409","name":"The Empty Circle","address":"499 3rd Ave","description":"(2-4 pm)","date":986529600000,"lat":40.66999,"long":-73.992007},{"id":"f0dcea9c-4d1b-550e-a304-a3ee2912840e","name":"Artful Souls","address":"105 S 5th St","description":"(3-5:30 pm)","date":986529600000,"lat":40.71327,"long":-73.956484},{"id":"a06aaff4-1aff-5cbe-9669-c2d0bafd28fe","name":"Artego","address":"32-88 48th St","description":"","date":986529600000,"lat":40.755906,"long":-73.912664},{"id":"e1c1cca6-534e-5bab-8510-170efd2d1964","name":"WhiteBox","address":"9 Avenue B","description":"","date":986443200000,"lat":40.721697,"long":-73.983417},{"id":"6dbea651-d997-5c04-bbe2-5d043e9ee480","name":"Soft Network","address":"636 Broadway","description":"","date":986443200000,"lat":40.726399,"long":-73.99593},{"id":"6624470a-1ef1-57f9-9602-2d9de033f1d7","name":"Ulterior","address":"424 Broadway #601","description":"","date":986443200000,"lat":40.719339,"long":-74.002156},{"id":"c6fa6164-4fda-5595-ab9b-9529f480bca6","name":"GR Gallery","address":"255 Bowery YY RSVP link in our bio","description":"","date":986443200000,"lat":40.7184,"long":-73.9866},{"id":"33d973d4-d35c-5581-ace7-8bea755d3ea7","name":"Satellite Art Show","address":"279 Broome St","description":"(5-8 pm) WV","date":986443200000,"lat":40.718378,"long":-73.991344},{"id":"e88e44e8-a954-58f5-b5b5-b445b35f396a","name":"Hannah Traore Gallery","address":"150 Orchard St WV","description":"","date":986443200000,"lat":40.720687,"long":-73.988771},{"id":"37917206-b584-563d-b0d7-16b16fe3d42b","name":"Anonymous Gallery","address":"136 Baxter St","description":"","date":986443200000,"lat":40.71864,"long":-73.998793},{"id":"6b7475e3-280a-5823-8a5c-df42b6b796d7","name":"Long Story Short","address":"52 & 54E Henry St","description":"","date":986443200000,"lat":40.713265,"long":-73.989815},{"id":"c00a571e-d1db-575c-a347-c799500e2d25","name":"LatchKey Gallery","address":"173 Henry St V","description":"(6-9 pm)","date":986443200000,"lat":40.713636,"long":-73.988864},{"id":"e7e215e7-8e6e-5535-ace5-44385bd989cb","name":"New Collectors","address":"191 Henry St","description":"","date":986443200000,"lat":40.713868,"long":-73.989524},{"id":"0d9c8a73-0f51-517b-bd3d-6695ff5bd546","name":"Chapter NY","address":"60 Walker St","description":"","date":986443200000,"lat":40.718903,"long":-74.002847},{"id":"b849f41f-0012-5813-8313-0827bcf6684c","name":"52 Walker","address":"52 Walker St","description":"","date":986443200000,"lat":40.719171,"long":-74.003238},{"id":"55c77e44-17e0-5304-a2f2-1c0ebcb156df","name":"GRIMM","address":"54 White St VW Ip","description":"","date":986443200000,"lat":40.718519,"long":-74.003729},{"id":"3fba9714-91d3-51ba-bc62-bde688b181de","name":"Deanna Evans Projects","address":"373 Broadway #E15 W","description":"","date":986443200000,"lat":40.717954,"long":-74.003573},{"id":"f68d0ed3-4319-5260-b561-b28c15e1c189","name":"Klaus von Nichtssagend","address":"87 Franklin St","description":"","date":986443200000,"lat":40.717879,"long":-74.004873},{"id":"17abc318-eed2-57d1-bd04-e1638f314cac","name":"Duane Thomas Gallery","address":"137 W Broadway V ®","description":"","date":986443200000,"lat":40.716785,"long":-74.007997},{"id":"439217df-0e5f-5478-982b-150712cdfb7d","name":"Artists Don't School","address":"116 Montague St","description":"(7-10 pm) W","date":986443200000,"lat":40.69476,"long":-73.994839},{"id":"b6e17371-6e00-55ca-abc0-e06f3e53b872","name":"SHY Studio","address":"75 Stewart Ave","description":"(7-11 pm) & In","date":986443200000,"lat":40.708222,"long":-73.926172},{"id":"4fbe136c-a1f9-5d3a-810c-bd14e68c0f57","name":"theBlanc","address":"15 E 40th St","description":"","date":986356800000,"lat":40.751903,"long":-73.980582},{"id":"70d99fe4-1de7-5128-9790-075eef1dc32b","name":"Mama Projects","address":"224 W 30th St #604 @ 1","description":"","date":986356800000,"lat":40.748821,"long":-73.993789},{"id":"fd6580b5-ddc9-5b8a-9646-0cf9fbf9b72d","name":"Monya Rowe Gallery","address":"224 W 30th St #304 /Y","description":"","date":986356800000,"lat":40.748821,"long":-73.993789},{"id":"db37e274-9c57-5fe1-a4f8-d23b5fe18a88","name":"Noho M55","address":"548 W 28th St #634","description":"","date":986356800000,"lat":40.751559,"long":-74.0042},{"id":"87659e37-2e8a-5dcf-ba7a-1ebe99900bef","name":"Skye Gallery","address":"508 W 28th St","description":"","date":986356800000,"lat":40.750861,"long":-74.002585},{"id":"673cc1c1-3696-559c-ace5-59f703cc2305","name":"Spirit del Art Gallery","address":"547 W 27th St #209","description":"","date":986356800000,"lat":40.751281,"long":-74.004388},{"id":"b400c88b-cb65-549d-93a2-fddbf63b8681","name":"Kasmin","address":"509 W 27th St","description":"","date":986356800000,"lat":40.750626,"long":-74.002951},{"id":"6ccc91d1-57e9-560b-a607-a03db544ded9","name":"Kasmin","address":"297 10th Ave","description":"","date":986356800000,"lat":40.750386,"long":-74.002437},{"id":"391aa94e-1b05-5a71-bdf3-af9b22284899","name":"Galerie Lelong","address":"528 W 26th St","description":"","date":986356800000,"lat":40.750127,"long":-74.004462},{"id":"6a0fa9a3-666b-551b-ab6e-15bb80752db7","name":"Morgan Lehman Gallery","address":"526 W 26th St #410 #¢","description":"","date":986356800000,"lat":40.750015,"long":-74.004344},{"id":"3e865ef6-3928-50c9-b7f0-610f984688f9","name":"Agora Gallery","address":"530 W 25th St #Y","description":"","date":986356800000,"lat":40.749388,"long":-74.004694},{"id":"81eab2eb-4947-51f0-8310-565924c46f62","name":"Cue Art Foundation","address":"137 W 25th St RSVP link in our bio","description":"","date":986356800000,"lat":40.745529,"long":-73.993725},{"id":"d1520ca4-9965-5bd6-9278-fe7d92bfc946","name":"Marianne Boesky","address":"509 W 24th St","description":"","date":986356800000,"lat":40.748773,"long":-74.004248},{"id":"f4405dbe-f8dd-5abf-9525-62bce2b2b003","name":"Crossing Art","address":"559 W 23rd St","description":"","date":986356800000,"lat":40.748855,"long":-74.006358},{"id":"52264c39-02a8-5931-9f79-5e5b94bb380b","name":"Fremin","address":"520 W 23rd St ¥Y RSVP at info@fremingallery.com","description":"","date":986356800000,"lat":40.747841,"long":-74.005166},{"id":"c42e33e5-31a6-5e6c-babd-c2ce4bddbdce","name":"Harper's Chelsea","address":"512 & 534 W 22nd St","description":"","date":986356800000,"lat":40.7445975,"long":-73.998638},{"id":"19cb7961-f700-519c-8a56-74bd302163fa","name":"Gladstone Gallery","address":"530 W 21st St","description":"","date":986356800000,"lat":40.746886,"long":-74.006716},{"id":"0e7e4c48-166c-5335-882f-30a0efeba103","name":"Lichtundfire","address":"175 Rivington St","description":"(5:30-8 pm)","date":986356800000,"lat":40.718821,"long":-73.984683},{"id":"8f198dcf-4bec-5211-9498-ac45d92e5f6a","name":"Hannah Traore Gallery","address":"150 Orchard St *Y","description":"","date":986356800000,"lat":40.720687,"long":-73.988771},{"id":"012308db-9525-53b9-8801-45d848746396","name":"Bitforms","address":"131 Allen St RSVP link in our bio","description":"","date":986356800000,"lat":22.1991660760527,"long":78.476681027237},{"id":"96eb9f94-0869-57ee-acf9-fa2749739735","name":"Satellite Art Show","address":"279 Broome St","description":"(5-8 pm) ¥%","date":986356800000,"lat":40.718378,"long":-73.991344},{"id":"c2441d23-3200-5520-af23-8c60eb41109a","name":"Hauser & Wirth","address":"134 Wooster St Y","description":"","date":986356800000,"lat":40.725616,"long":-73.999655},{"id":"4a020546-aff8-5bbd-9c22-edc83b649dff","name":"Judd Foundation","address":"101 Spring St","description":"(5-7 pm)","date":986356800000,"lat":40.723469,"long":-73.999421},{"id":"3039e91b-cf10-58e2-8bc5-ba4ec6b75d56","name":"Ulterior","address":"424 Broadway","description":"","date":986356800000,"lat":40.706646,"long":-73.953344},{"id":"8b1099d7-df29-56bd-80b9-c7c94ba30507","name":"Uprise Art","address":"264 Canal St #4W RSVP link in our bio","description":"","date":986356800000,"lat":40.718578,"long":-74.001258},{"id":"344e365f-c189-5d98-89f1-af2a3933806f","name":"Someday","address":"120 Walker St #3R","description":"","date":986356800000,"lat":40.717563,"long":-73.999723},{"id":"9cd2c47e-a028-53df-a324-8fa503b3646a","name":"Hal Bromm Gallery","address":"90 W Broadway","description":"(6-9 pm) *%","date":986356800000,"lat":40.715466,"long":-74.00953},{"id":"3793fa17-618b-5da3-986f-71c0a9fc3796","name":"Awita New York Studio","address":"274 S 2nd St","description":"(5-8 pm)","date":986356800000,"lat":40.711245,"long":-73.957047}]}}}