{"data":{"allOpening":{"group":[{"fieldValue":"1704128400000","totalCount":2,"nodes":[{"id":"76121b85-8cd6-598c-b1b0-fb02b70d2ad4","name":"Â» We","address":"","description":"","date":1704128400000,"lat":40.856809,"long":-73.846739,"emoji":""},{"id":"082da887-5bc9-5c72-b137-936660aa7018","name":"\\ \\ al w Yaa . esi)","address":"i","description":"","date":1704128400000,"lat":40.759615,"long":-73.984974,"emoji":""}]},{"fieldValue":"1724518800000","totalCount":4,"nodes":[{"id":"ed1c0cdc-90a9-5f0d-b67b-205b4f464e04","name":"Detour Gallery","address":"545 W 23rd St","description":"(6-9 pm)","date":1724518800000,"lat":40.748549,"long":-74.005792,"emoji":"ðŸ¥‚"},{"id":"5b1a5bb7-4723-5111-9669-ca07cad8b051","name":"Astoria Art Center","address":"27-02 Ditmars Blvd","description":"(closing","date":1724518800000,"lat":40.77757,"long":-73.91316,"emoji":""},{"id":"c6451f9c-d714-556f-b6b8-6c223872c284","name":"The Bishop Gallery","address":"630 Flushing Ave","description":"(Artist talk and","date":1724518800000,"lat":40.699785,"long":-73.948019,"emoji":""},{"id":"cb5bb495-9d54-55b7-9d1b-8adda71d6133","name":"Living Skin","address":"61 Wyckoff Ave","description":"(6-9 pm)","date":1724518800000,"lat":40.70568,"long":-73.92121,"emoji":""}]},{"fieldValue":"1724950800000","totalCount":5,"nodes":[{"id":"69eb28c2-baa1-5f62-af29-695eeeb32045","name":"MVP Gallery","address":"935 Columbus Ave","description":"(6-9 pm)","date":1724950800000,"lat":40.799004,"long":-73.962753,"emoji":""},{"id":"df624bc8-3157-569d-81e0-bb3b500a3ccd","name":"Detour Gallery","address":"545 W 23rd St","description":"(6-9 pm)","date":1724950800000,"lat":40.748549,"long":-74.005792,"emoji":"ðŸ¥‚"},{"id":"10b4b823-f3a7-566f-b709-7dbca8372ff7","name":"Gallery Onetwentyeight","address":"128 Rivington St","description":"","date":1724950800000,"lat":40.719739,"long":-73.986922,"emoji":""},{"id":"b1ac1410-bb83-58df-a2ff-33c968aad98f","name":"Brooklyn Art Cave","address":"897 Broadway","description":"(7-10 pm) 2","date":1724950800000,"lat":40.698058,"long":-73.936815,"emoji":"ðŸ¥‚"},{"id":"a6085869-b4ee-5773-933d-e20385b75ab5","name":"Deep Space Gallery","address":"77 Cornelison Ave","description":"(6-10 pm)","date":1724950800000,"lat":40.718816,"long":-74.065631,"emoji":"ðŸ¥‚"}]},{"fieldValue":"1725469200000","totalCount":39,"nodes":[{"id":"580be252-2641-5967-926c-763492b878a8","name":"Tilton","address":"8 E 76th St","description":"","date":1725469200000,"lat":40.774591,"long":-73.964515,"emoji":""},{"id":"27279aef-7f1f-5556-82f7-311882098b9e","name":"Upsilon Gallery","address":"23 E 67th St","description":"","date":1725469200000,"lat":40.768854,"long":-73.967896,"emoji":""},{"id":"a077c034-a07a-5509-90da-50fe57aae3cb","name":"Anton Kern","address":"16 E 55th St W","description":"","date":1725469200000,"lat":40.761066,"long":-73.973977,"emoji":""},{"id":"076d220a-e975-5a87-8449-4da9e55c9ef9","name":"Kasmin","address":"514 W 28th St","description":"","date":1725469200000,"lat":40.751142,"long":-74.002633,"emoji":""},{"id":"7160138d-951d-56a2-b7ff-b18e26461bf1","name":"Kasmin","address":"297 10th Ave","description":"","date":1725469200000,"lat":40.750386,"long":-74.002437,"emoji":""},{"id":"20aad193-fc02-5ae3-8266-65f736f4285f","name":"Morgan Presents","address":"537 W 27th St","description":"","date":1725469200000,"lat":40.751147,"long":-74.004095,"emoji":""},{"id":"c4b97d4a-8043-534a-ac2b-3b7b566c5e58","name":"Kasmin","address":"509 W 27th St","description":"","date":1725469200000,"lat":40.750642,"long":-74.002936,"emoji":""},{"id":"f7b50cd8-6fa6-5165-b646-9868c579b940","name":"Templon","address":"293 10th Ave","description":"(5-8 pm)","date":1725469200000,"lat":40.750177,"long":-74.002678,"emoji":"ðŸ¥‚ðŸ·"},{"id":"50dc65c7-5d1f-5c9c-bdfc-e77183f15b16","name":"Harper's Chelsea","address":"512 W 22nd St","description":"","date":1725469200000,"lat":40.74726,"long":-74.00548,"emoji":"ðŸ¥‚"},{"id":"79a38db5-0d83-5fac-93ea-e8a58ad86837","name":"Tanya Bonakdar Gallery","address":"521 W 21st St [Dn","description":"","date":1725469200000,"lat":40.747075,"long":-74.00619,"emoji":""},{"id":"8b01bcc1-7383-5c92-9e51-524e75b2b6cf","name":"Nara Roesler","address":"511 W 21st St","description":"","date":1725469200000,"lat":40.747193,"long":-74.006175,"emoji":""},{"id":"6f482601-5ecb-5d13-9df9-837d6a5d485f","name":"Half Gallery","address":"235 E 4th St","description":"","date":1725469200000,"lat":40.72348,"long":-73.982635,"emoji":""},{"id":"a73019da-20da-533d-a27f-ed5c53ecf075","name":"Palo Gallery","address":"21 E 3rd St","description":"","date":1725469200000,"lat":40.726019,"long":-73.990531,"emoji":""},{"id":"98dea32a-bc53-5206-b4dd-709ad97f3030","name":"March","address":"62-64 Avenue A","description":"","date":1725469200000,"lat":40.72879,"long":-73.99076,"emoji":""},{"id":"469e0c5b-72c2-53ae-bd6e-dd22be29730c","name":"Osmos","address":"50 E 1st St","description":"","date":1725469200000,"lat":40.72394,"long":-73.98955,"emoji":""},{"id":"7535bdfd-f87f-5a2b-87b9-831bcbac02e8","name":"Totah","address":"183 Stanton St","description":"","date":1725469200000,"lat":40.719957,"long":-73.983842,"emoji":"ðŸ¥‚"},{"id":"117a7037-aa4c-59c3-8c79-a3f65f08760e","name":"signs & symbols","address":"249 E Houston St","description":"","date":1725469200000,"lat":40.721686,"long":-73.985395,"emoji":""},{"id":"3095d245-b78a-5cea-817e-0fb39edd008a","name":"JJ Murphy","address":"53 Stanton St","description":"","date":1725469200000,"lat":40.721939,"long":-73.990382,"emoji":""},{"id":"4599ab8b-99cd-5ce0-8590-c43e33f15e41","name":"Voltz Clarke","address":"195 Chrystie St","description":"","date":1725469200000,"lat":40.722172,"long":-73.992051,"emoji":""},{"id":"b6cd761a-f331-57d8-8320-51c93c5c83ef","name":"Fridman Gallery","address":"169 Bowery","description":"","date":1725469200000,"lat":40.719817,"long":-73.993359,"emoji":""},{"id":"22ab6643-d4db-594f-b9b1-63af691f636d","name":"Nathalie Karg Gallery","address":"127 Elizabeth St","description":"","date":1725469200000,"lat":40.71952,"long":-73.995499,"emoji":""},{"id":"7acc7cd0-2908-5ff2-b328-9c2574b36c66","name":"Entrance","address":"48 Ludlow St","description":"(6-9 pm)","date":1725469200000,"lat":40.716373,"long":-73.990084,"emoji":""},{"id":"c1483af4-1882-5ca5-8920-75e8b22b5d9f","name":"Maxwell Graham","address":"55 Hester St","description":"","date":1725469200000,"lat":40.715791,"long":-73.990123,"emoji":""},{"id":"7bd9c1cc-3f30-59bc-9d94-a38d30d027de","name":"Europa","address":"125 Division St","description":"","date":1725469200000,"lat":40.714372,"long":-73.991605,"emoji":""},{"id":"4e0cf068-b402-54e7-9587-65e2ad9b94c0","name":"LatchKey Gallery","address":"173 Henry St W","description":"","date":1725469200000,"lat":40.713636,"long":-73.988864,"emoji":""},{"id":"af83d03a-18af-5493-a2d9-aa79caa1fec4","name":"Foreign & Domestic","address":"24 Rutgers St","description":"","date":1725469200000,"lat":40.713115,"long":-73.990275,"emoji":""},{"id":"1635ba8f-b749-5a42-9ebc-6983ca06c473","name":"Diana","address":"127 Henry St [lp","description":"","date":1725469200000,"lat":40.713438,"long":-73.991298,"emoji":""},{"id":"8735859c-ae44-53ef-a0f6-87334c2274ba","name":"Situations","address":"127 Henry St","description":"","date":1725469200000,"lat":40.713438,"long":-73.991298,"emoji":""},{"id":"3f37cbea-ec76-5809-8f7a-c0a4b028fd18","name":"Blade Study","address":"17 Pike St","description":"(6-9 pm) [1","date":1725469200000,"lat":40.69957,"long":-73.938649,"emoji":""},{"id":"f8fa58be-0ac6-5329-96d3-7dca3e284b89","name":"Will Shott","address":"17 Pike St","description":"(6-9 pm)","date":1725469200000,"lat":40.69957,"long":-73.938649,"emoji":""},{"id":"80f7c9c4-4028-55a5-a2ac-03213cfe3c93","name":"56 Henry","address":"56 Henry St W","description":"","date":1725469200000,"lat":40.712823,"long":-73.995181,"emoji":""},{"id":"f9837ea8-7832-5b95-9177-e3cc20aa42ce","name":"Long Story Short","address":"52 Henry St","description":"","date":1725469200000,"lat":40.712768,"long":-73.995348,"emoji":""},{"id":"46337db3-74fc-5b82-a5eb-0a9c64d93193","name":"Post Times","address":"29 Henry St","description":"","date":1725469200000,"lat":40.713001,"long":-73.996394,"emoji":""},{"id":"b6af469a-6b2c-5bc8-8b98-fcb6185d466c","name":"Lyles & King","address":"19 Henry St","description":"(5-8 pm)","date":1725469200000,"lat":40.712924,"long":-73.99695,"emoji":""},{"id":"68a1cd65-1f9d-565e-ab9d-284ec3255cd0","name":"Ghostmachine Gallery","address":"23 Monroe St","description":"(6-9 pm)","date":1725469200000,"lat":40.71165,"long":-73.99547,"emoji":"ðŸ¥‚ðŸº"},{"id":"ea82fb66-06d7-54b6-a9b9-2e6ba416f9fc","name":"Hauser & Wirth","address":"134 Wooster St","description":"","date":1725469200000,"lat":40.725616,"long":-73.999655,"emoji":"ðŸ¥‚"},{"id":"a8201ef5-9f3e-588d-8ff3-bd87f562cac6","name":"Canada","address":"60 & 61 Lispenard St","description":"","date":1725469200000,"lat":40.719948,"long":-74.003715,"emoji":""},{"id":"73965295-6ba6-540e-85de-e80a6dfdc961","name":"1969 Gallery","address":"39 White St W","description":"","date":1725469200000,"lat":40.718543,"long":-74.00454,"emoji":""},{"id":"02ad466b-9677-51fd-a131-0bd10e8aff68","name":"Selva","address":"1329 Willoughby Ave","description":"(6-10 pm)","date":1725469200000,"lat":40.706267,"long":-73.921157,"emoji":""}]},{"fieldValue":"1725555600000","totalCount":63,"nodes":[{"id":"064b41f0-215d-51b5-a292-3ffd4699491c","name":"Leila Heller","address":"22 E 80th St","description":"","date":1725555600000,"lat":40.777024,"long":-73.962123,"emoji":""},{"id":"cc9242b3-fb76-596e-bf35-62a4a8608779","name":"D'Lan Contemporary","address":"25 E 73rd St","description":"","date":1725555600000,"lat":40.772749,"long":-73.96516,"emoji":"ðŸ¥‚"},{"id":"59947f61-844d-5d56-bca0-04d978929513","name":"Nancy Hoffman","address":"520 W 27th St","description":"","date":1725555600000,"lat":40.750524,"long":-74.003646,"emoji":""},{"id":"68d03ed7-24d9-5d5a-8c52-6afdf4fcd1dc","name":"Casey Kaplan","address":"121 W 27th St","description":"","date":1725555600000,"lat":40.745937,"long":-73.992039,"emoji":""},{"id":"531dfd15-e88e-5c19-8990-d1fc6147774a","name":"Lelong & Co.","address":"528 W 26th St","description":"","date":1725555600000,"lat":40.750127,"long":-74.004462,"emoji":""},{"id":"875224f3-e0f0-53a2-9200-9992381ff466","name":"Satchel Projects","address":"526 W 26th St #913","description":"","date":1725555600000,"lat":40.750016,"long":-74.004348,"emoji":""},{"id":"fc78b243-f765-5c49-b41b-61ce29842628","name":"Seizan Gallery","address":"525 W 26th St","description":"","date":1725555600000,"lat":40.750235,"long":-74.003958,"emoji":""},{"id":"399856ff-400d-5a50-b956-31c95fc39374","name":"Albertz Benda","address":"515 W 26th St","description":"","date":1725555600000,"lat":40.750049,"long":-74.003607,"emoji":""},{"id":"9075903c-b5a1-58fb-bff4-d662ff62b6ff","name":"Friedman Benda","address":"515 W 26th St","description":"","date":1725555600000,"lat":40.750049,"long":-74.003607,"emoji":""},{"id":"a3bd55eb-26cb-5ad8-8730-5256aca7f044","name":"Ryan Lee","address":"515 W 26th St","description":"","date":1725555600000,"lat":40.750049,"long":-74.003607,"emoji":""},{"id":"1de954ae-50ed-5046-855d-1f85ec3e3d15","name":"AP Space","address":"555 W 25th St","description":"","date":1725555600000,"lat":40.750081,"long":-74.005336,"emoji":""},{"id":"0bf2ce93-5afc-5c3c-b821-1ec11099829f","name":"Winston Wachter","address":"530 W 25th St W","description":"","date":1725555600000,"lat":40.74938,"long":-74.004714,"emoji":""},{"id":"ef70dc5d-3f03-5d6a-9a9e-cd83498dcf1c","name":"Petzel","address":"520 W 25th St","description":"","date":1725555600000,"lat":40.749156,"long":-74.004276,"emoji":""},{"id":"31e6c5f0-7bc6-5473-86f4-c3851966d8ed","name":"Cue Art Foundation","address":"137 W 25th St","description":"","date":1725555600000,"lat":40.745065,"long":-73.993435,"emoji":""},{"id":"95fe9b28-32f3-5edc-a129-b461adc1da5b","name":"Fredericks & Freiser","address":"536 W 24th St","description":"","date":1725555600000,"lat":40.749044,"long":-74.005641,"emoji":"ðŸ¥‚ðŸ·"},{"id":"5d6c0a5e-7783-5d48-bf7f-00f58124d9b6","name":"Anna Zorina","address":"532 W 24th St","description":"","date":1725555600000,"lat":40.748953,"long":-74.005368,"emoji":""},{"id":"a56d83d4-2a83-56cb-b52f-1b387d96e918","name":"Hunter Dunbar","address":"524 W 24th St","description":"","date":1725555600000,"lat":40.74878,"long":-74.005106,"emoji":""},{"id":"c87696b9-ab1d-5e99-88a1-a1698f851e25","name":"Susan Inglett","address":"522 W 24th St","description":"","date":1725555600000,"lat":40.748757,"long":-74.005061,"emoji":""},{"id":"87788fd4-1bcb-5c97-aeac-6dbe296267c9","name":"Lisson","address":"504 & 508 W 24th St","description":"","date":1725555600000,"lat":40.74606,"long":-73.998523,"emoji":""},{"id":"4486e9a7-433d-5d82-864a-05efc253736b","name":"Marianne Boesky","address":"507 & 509 W 24th St","description":"","date":1725555600000,"lat":40.74606,"long":-73.998523,"emoji":""},{"id":"7df48d89-4423-51a1-8fd9-4b8ab90f0fe5","name":"Silverlens","address":"505 W 24th St","description":"","date":1725555600000,"lat":40.748635,"long":-74.004028,"emoji":""},{"id":"9f43c968-9cef-542c-b6ff-eba3dc03cce2","name":"Lehmann Maupin","address":"501 W 24th St","description":"","date":1725555600000,"lat":40.748536,"long":-74.003838,"emoji":""},{"id":"3e5e4127-13f8-54e7-bf07-b1d2eb17ed8c","name":"Hauser & Wirth","address":"542 W 22nd St W","description":"","date":1725555600000,"lat":40.74735,"long":-74.006015,"emoji":""},{"id":"b25189d1-b39b-56dd-b975-27e5eda14eac","name":"Pace Prints","address":"536 W 22nd St","description":"","date":1725555600000,"lat":40.747569,"long":-74.006228,"emoji":""},{"id":"2043a646-5685-5831-8931-b5c5df072d49","name":"Miles McEnery","address":"515 & 525 W 22nd St","description":"","date":1725555600000,"lat":40.744516,"long":-73.998698,"emoji":""},{"id":"665df5b7-f3e3-59dc-bdee-3e5b74a5a8fe","name":"JoAnne Artman","address":"511A W 22nd St","description":"(5-7 pm) RSVP","date":1725555600000,"lat":40.747503,"long":-74.005295,"emoji":""},{"id":"abf8a003-4c34-5485-b6e2-b771bb25751b","name":"Miles McEnery","address":"520 W 21st St","description":"","date":1725555600000,"lat":40.747672,"long":-74.005648,"emoji":""},{"id":"4b8bcae6-97cb-53c7-b1ec-bec00c995246","name":"Kravets Wehby","address":"521 W 21st St","description":"","date":1725555600000,"lat":40.747075,"long":-74.00619,"emoji":""},{"id":"87578ebd-6982-5031-85c4-50aa1e212b5a","name":"Nohra Haime","address":"500A W 21st St WW","description":"","date":1725555600000,"lat":40.746375,"long":-74.005514,"emoji":"ðŸ§€"},{"id":"511bfbe2-b67b-56ef-b2f6-d6dc3ef59f41","name":"Kathryn Markel Fine Arts","address":"179 10th Ave","description":"","date":1725555600000,"lat":40.746272,"long":-74.005493,"emoji":""},{"id":"5b97d784-e076-5a8f-831d-3eec39d01f6d","name":"Hales Gallery","address":"547 W 20th St","description":"","date":1725555600000,"lat":40.746854,"long":-74.007621,"emoji":""},{"id":"f63255ef-65fe-5256-9733-afed6e31a3c9","name":"Garth Greenan","address":"545 W 20th St Bp","description":"","date":1725555600000,"lat":40.74691,"long":-74.007514,"emoji":"ðŸ¥‚"},{"id":"e52309e6-9545-5736-ac4e-d681f91c90fd","name":"Jack Shainman","address":"513 W 20th St","description":"","date":1725555600000,"lat":40.746335,"long":-74.00627,"emoji":""},{"id":"6dc11be4-6059-5ec2-a6b9-8693b9fc8f1f","name":"A Hug From The Art World","address":"515 W 19th St","description":"","date":1725555600000,"lat":40.74573,"long":-74.006693,"emoji":""},{"id":"1d0b3794-5716-5ff2-b463-d02331b2c48f","name":"Vito Schnabel Gallery","address":"455 W 19th St","description":"","date":1725555600000,"lat":40.745095,"long":-74.005235,"emoji":"ðŸ¥‚ðŸ·"},{"id":"2abe1008-c265-5f59-bc00-428139c25e8c","name":"Nicola Vassell Gallery","address":"138 10th Ave","description":"","date":1725555600000,"lat":40.744808,"long":-74.005886,"emoji":""},{"id":"2379643d-709e-5d9a-bb0d-31d89d0a23cb","name":"The Hole","address":"312 Bowery","description":"","date":1725555600000,"lat":40.725081,"long":-73.992645,"emoji":"ðŸ·"},{"id":"a0fe0329-a6bb-5079-bc4b-d6d06e19e060","name":"Westwood Gallery","address":"262 Bowery","description":"","date":1725555600000,"lat":40.723344,"long":-73.993273,"emoji":""},{"id":"551af67f-da4d-5074-abd7-1352c9358d9c","name":"Candice Madey","address":"1 Rivington St","description":"","date":1725555600000,"lat":40.721401,"long":-73.993037,"emoji":""},{"id":"27748703-35c8-521c-962a-74156232d741","name":"Tibor de Nagy","address":"11 Rivington St","description":"","date":1725555600000,"lat":40.72122,"long":-73.99273,"emoji":""},{"id":"d468c75a-63dd-5167-9218-82aec0c1a012","name":"Satellite Art Show","address":"279 Broome St","description":"(6-9 pm) [1D","date":1725555600000,"lat":40.718374,"long":-73.991341,"emoji":""},{"id":"eeb67f39-12ed-51a0-a23a-0e7453a58ff3","name":"Equity Gallery","address":"245 Broome St","description":"","date":1725555600000,"lat":40.717807,"long":-73.989751,"emoji":""},{"id":"51bd6bf4-caf5-542e-8b94-d0a3e1620a98","name":"Gordon Gallery","address":"139 Norfolk St","description":"(6-9 pm)","date":1725555600000,"lat":40.720131,"long":-73.986684,"emoji":"ðŸ¥‚"},{"id":"f3e5cbc2-cfe8-592c-bcae-47e432e0ef3b","name":"Artifact Projects","address":"155 Suffolk St","description":"","date":1725555600000,"lat":40.720834,"long":-73.985382,"emoji":"ðŸ¥‚"},{"id":"9fa517cf-8e58-5cd0-971e-2e2d767f035c","name":"Sitting Room","address":"195 Henry St","description":"","date":1725555600000,"lat":40.713725,"long":-73.98777,"emoji":""},{"id":"0c4ea174-3be9-5ec9-a8cd-01b64131cc80","name":"NowHere","address":"40 Wooster St","description":"","date":1725555600000,"lat":40.722221,"long":-74.0025,"emoji":"ðŸ¥‚"},{"id":"16fcb395-fa57-503b-8aa4-d5561e2eb478","name":"Gallery 456/Chinese American Arts Council","address":"456","description":"","date":1725555600000,"lat":40.7229,"long":-73.9988,"emoji":""},{"id":"80573f2a-d199-5726-860a-74933dc30c38","name":"Broadway","address":"3rd Fl","description":"","date":1725555600000,"lat":40.719249,"long":-73.775063,"emoji":""},{"id":"39b3939a-0022-5d50-b6ed-3bae25c338d6","name":"Opening Gallery","address":"42 Walker St","description":"","date":1725555600000,"lat":40.719345,"long":-74.003699,"emoji":""},{"id":"0a8664f8-3ac0-51c7-b582-bb0885c1feb8","name":"Deli Gallery","address":"36 White St","description":"","date":1725555600000,"lat":40.718834,"long":-74.004516,"emoji":""},{"id":"3a4cd6a5-6c22-5f56-a9ff-b62ea5a0a987","name":"Nicelle Beauchene","address":"7 Franklin PI","description":"","date":1725555600000,"lat":40.718006,"long":-74.0037,"emoji":""},{"id":"c1ad9abd-e7b4-5edf-b6e0-1f0447dae974","name":"81 Leonard Gallery","address":"81 Leonard St","description":"","date":1725555600000,"lat":40.717397,"long":-74.004963,"emoji":"ðŸ¥‚"},{"id":"b5633d98-9c28-54c6-ae96-47d7972b68c5","name":"Galerie 56","address":"240 Church St","description":"","date":1725555600000,"lat":40.717569,"long":-74.006069,"emoji":""},{"id":"7b2ba6aa-d21c-5eb1-8290-f58b6e11f367","name":"Sara's at Dunkunsthalle","address":"64 Fulton St","description":"(6-9 pm)","date":1725555600000,"lat":40.708731,"long":-74.005358,"emoji":""},{"id":"481eaf7d-e5a1-5476-b826-b0fc75c6729f","name":"Culture Lab LIC","address":"5-25 46th Ave","description":"(6-9 pm) Bp 4","date":1725555600000,"lat":40.747453,"long":-73.954166,"emoji":"ðŸ¥‚"},{"id":"8f8732e2-ee95-51ae-b7d5-6dd40fe56b43","name":"The Locker Room","address":"373 S 1st St","description":"(6-9 pm)","date":1725555600000,"lat":40.71064,"long":-73.952509,"emoji":""},{"id":"fe67f0c8-3ac6-5020-a4e8-b63ff1c20d74","name":"Hausen","address":"RSVP info@hausen.co for location","description":"(6-9 pm)","date":1725555600000,"lat":40.7154,"long":-74.0093,"emoji":""},{"id":"88194c9b-a8f6-5e7f-9a33-52dcf8eb9778","name":"Awita Art Studio","address":"274 S. 2nd St","description":"(6-9 pm)","date":1725555600000,"lat":40.711209,"long":-73.95707,"emoji":""},{"id":"2c6439fb-8a2b-5dfe-b29b-c6db0ab1daa3","name":"Amos Eno","address":"56 Bogart St","description":"","date":1725555600000,"lat":40.70575,"long":-73.933132,"emoji":""},{"id":"3f95668b-a2ca-5085-862e-79288a3b53f0","name":"440 Gallery","address":"440 6th Ave","description":"(5-7 pm)","date":1725555600000,"lat":40.667819,"long":-73.984424,"emoji":""},{"id":"1ffb42d3-7a4d-5af7-9c13-fd999df2f521","name":"Fo : : i","address":"","description":"","date":1725555600000,"lat":40.7154,"long":-74.0093,"emoji":""},{"id":"48e06a09-ef24-5b22-a07a-13d97d86c29f","name":": 4 \\ 14 BN > g N =","address":") 2","description":"","date":1725555600000,"lat":40.7154,"long":-74.0093,"emoji":""},{"id":"737bc83a-eea4-5f6b-9639-0df30c1e6aea","name":"go A EN","address":"I y/o \\","description":"","date":1725555600000,"lat":40.716992,"long":-73.994659,"emoji":""}]}]}}}