{"data":{"allOpening":{"group":[{"fieldValue":"1712422800000","totalCount":12,"nodes":[{"id":"8c244e8c-0115-5a4e-a223-f367f2ebced0","name":"Edwynn Houk","address":"745 5th Ave 4th FI","description":"(3-5 pm)","date":1712422800000,"lat":40.763464,"long":-73.97364},{"id":"c1006f54-354c-51a1-89d3-142aec506e1b","name":"Yancey Richardson","address":"525 W 22nd St","description":"(2-6 pm)","date":1712422800000,"lat":40.747651,"long":-74.005628},{"id":"c6fbbd3d-48ac-5381-8ee1-44c72e802c34","name":"Paula Cooper Gallery","address":"534 W 21st St","description":"","date":1712422800000,"lat":40.746971,"long":-74.006864},{"id":"76e87c06-aea0-5a4a-99d5-2c260043f35f","name":"Modus 10","address":"7 Wooster St @","description":"","date":1712422800000,"lat":40.721299,"long":-74.003773},{"id":"cc4ca6e9-8b14-5e33-b369-16a99aef10b5","name":"Ki Smith Gallery","address":"170 Forsyth St","description":"(6-9 pm)","date":1712422800000,"lat":40.721186,"long":-73.991197},{"id":"4262f585-ed18-5f9e-b2d7-a3515bf6184a","name":"Satellite Art Show","address":"279 Broome St","description":"(5-8 pm)","date":1712422800000,"lat":40.718378,"long":-73.991344},{"id":"be754c9d-8128-5c0f-9613-2d00106d9caf","name":"56 Henry","address":"56 Henry St","description":"","date":1712422800000,"lat":40.7128,"long":-73.995178},{"id":"9359aaff-44a0-5d36-aaa1-2e5ae8982355","name":"WWW.WILLSHOTT","address":"17 Pike St","description":"","date":1712422800000,"lat":40.713457,"long":-73.992204},{"id":"d1bb417a-8ecd-5d7a-8ff1-12df990cc0ac","name":"FiveMyles","address":"558 St. Johns PI","description":"(5:30-8 pm)","date":1712422800000,"lat":40.672936,"long":-73.960374},{"id":"c46606bd-7dd9-5791-8ecb-3650b50269e0","name":"The Empty Circle","address":"499 3rd Ave","description":"(2-4 pm)","date":1712422800000,"lat":40.66999,"long":-73.992007},{"id":"bf348e3f-e556-546c-882a-37e7053ebb2e","name":"Artful Souls","address":"105 S 5th St","description":"(3-5:30 pm)","date":1712422800000,"lat":40.71327,"long":-73.956484},{"id":"6fb7fd5e-0e0e-5cfe-939b-831df571a7b3","name":"Artego","address":"32-88 48th St","description":"","date":1712422800000,"lat":40.755906,"long":-73.912664}]},{"fieldValue":"1712854800000","totalCount":16,"nodes":[{"id":"e818b668-a38c-592a-87a2-0c6965e530e9","name":"David Zwirner","address":"34 E 69th St","description":"","date":1712854800000,"lat":40.769511,"long":-73.966453},{"id":"f2b3d3f4-62df-593e-97b5-bdf6e3d56e53","name":"Anton Kern","address":"16 E 55th St","description":"","date":1712854800000,"lat":40.761052,"long":-73.973991},{"id":"d73ab2aa-0490-5df0-bebe-8eb99bbb00c2","name":"Spirit Del Art","address":"547 W 27th St","description":"","date":1712854800000,"lat":40.751281,"long":-74.004388},{"id":"90e84d49-4c82-558a-afd2-41f1fb97646c","name":"Ross + Kramer","address":"515 W 27th St","description":"","date":1712854800000,"lat":40.750746,"long":-74.003131},{"id":"40388e29-1fa6-521f-8adc-2239cb594082","name":"Satchel Projects","address":"526 W 26th St WV","description":"","date":1712854800000,"lat":40.750015,"long":-74.004344},{"id":"c96855f2-9756-5717-b3d8-ea64bed24ef8","name":"VillageOneArt","address":"150 W 25th St #403 W","description":"","date":1712854800000,"lat":40.744801,"long":-73.993867},{"id":"9076a564-1e16-52af-9dbb-047027ec76d6","name":"AHA Underground @ Jim Kempner","address":"501 W 23rd St","description":"","date":1712854800000,"lat":40.747958,"long":-74.00427},{"id":"1ba13750-7ffa-5c18-bdbd-cbcf391faa7e","name":"David Zwirner","address":"533 W 19th St","description":"","date":1712854800000,"lat":40.745968,"long":-74.00744},{"id":"884c717e-c6b8-582e-a136-4400eb32bc27","name":"Slag Gallery","address":"522 W 19th St","description":"","date":1712854800000,"lat":40.745633,"long":-74.007169},{"id":"45dd9d1b-407b-5464-b36c-8449fdf4d432","name":"Shelter","address":"127 Eldridge St","description":"","date":1712854800000,"lat":40.718724,"long":-73.991803},{"id":"ac9b1b7e-bd5d-5ee1-98c2-90fc4d44b160","name":"The Front Gallery","address":"131 Chrystie St","description":"(6-9 pm)","date":1712854800000,"lat":40.719489,"long":-73.99347},{"id":"101c14d0-1c44-5e16-861f-93939be8c87e","name":"Satellite Art Show","address":"279 Broome St","description":"(5-8 pm) W","date":1712854800000,"lat":40.718378,"long":-73.991344},{"id":"22e79693-1ffe-53ff-9a52-ea16171d6ab9","name":"Susan Eley","address":"190 Orchard St","description":"","date":1712854800000,"lat":40.722112,"long":-73.988054},{"id":"76a28a65-9921-58ac-a967-ca045e6109bc","name":"Frosch&Co","address":"34 E Broadway","description":"","date":1712854800000,"lat":40.713688,"long":-73.996387},{"id":"61ba52c2-669d-55f8-a602-da50d51ada1a","name":"Kai Matsumiya","address":"264 Canal St","description":"","date":1712854800000,"lat":40.718578,"long":-74.001258},{"id":"eaeaef13-2434-51ba-a3bb-8638f690483f","name":"Nicelle Beauchene","address":"7 Franklin PI","description":"","date":1712854800000,"lat":40.718006,"long":-74.0037}]},{"fieldValue":"1712941200000","totalCount":21,"nodes":[{"id":"acc26970-566a-51c8-ab8b-39cfdce5f448","name":"The Bronx Museum","address":"1040 Grand Concourse","description":"(7-9 pm) @","date":1712941200000,"lat":40.831055,"long":-73.91988},{"id":"c10ee20c-26ab-5015-97ca-b6021e1f4e2c","name":"Edgar Allen Poe Cottage","address":"2640 Grand Concourse","description":"","date":1712941200000,"lat":40.8651,"long":-73.89469},{"id":"7ef3a38b-1b69-55d1-95c2-4f31f2d76e41","name":"303 Gallery","address":"555 W 21st St /¢","description":"","date":1712941200000,"lat":40.747565,"long":-74.007443},{"id":"551e1656-01aa-597e-be66-ce11ff41f52c","name":"Tanya Bonakdar Gallery","address":"521 W 21st St","description":"","date":1712941200000,"lat":40.747075,"long":-74.00619},{"id":"bd282d11-beb1-5ded-82b0-2b2d180e2a49","name":"Palo Gallery","address":"30 Bond St","description":"","date":1712941200000,"lat":40.726481,"long":-73.993455},{"id":"ca8d9935-afb2-5cf5-85ac-fd63f2b01851","name":"Helm Contemporary","address":"132 Bowery 3rd FI ¥Y","description":"","date":1712941200000,"lat":40.7184,"long":-73.9866},{"id":"6377730c-5c42-5bd3-91ee-5c6a1ab54f00","name":"Simone Subal","address":"131 Bowery 2nd Fl","description":"","date":1712941200000,"lat":40.718566,"long":-73.994535},{"id":"82d95e72-69a1-518d-918d-1fd7792642ac","name":"Satellite Art Show","address":"279 Broome St","description":"(5-8 pm) ¥¢","date":1712941200000,"lat":40.718378,"long":-73.991344},{"id":"70a145ad-66f7-5033-ba73-bc8180e8604e","name":"Kuma Lisa Gallery","address":"56 Eldridge St","description":"","date":1712941200000,"lat":40.716197,"long":-73.992783},{"id":"c1104fef-8127-5b54-8339-7540e8d9df99","name":"Management","address":"39 E Broadway #404","description":"","date":1712941200000,"lat":40.713374,"long":-73.996153},{"id":"a8dbe546-6577-57cc-bbe1-471ae7401698","name":"King's Leap","address":"105 Henry St","description":"","date":1712941200000,"lat":40.713327,"long":-73.992135},{"id":"4881af99-8537-5a4b-98b6-9ae309091250","name":"Foreign & Domestic","address":"24 Rutgers St","description":"","date":1712941200000,"lat":40.713115,"long":-73.990275},{"id":"5f3d0f51-7c1d-5319-96b1-3e4bfdad5389","name":"George Adams Gallery","address":"38 Walker St","description":"","date":1712941200000,"lat":40.719439,"long":-74.003835},{"id":"20f29749-2819-500a-bc77-90f3fd2d03fc","name":"PPOW","address":"392 Broadway","description":"","date":1712941200000,"lat":40.718263,"long":-74.002424},{"id":"35061f6e-f803-59ea-91a5-4d96fc6c68e7","name":"Jack Barrett Gallery","address":"89 Franklin St 1@","description":"","date":1712941200000,"lat":40.717953,"long":-74.004914},{"id":"b56d8b04-c1f9-5d40-961c-823b80f5fb2b","name":"A Space","address":"13 Grattan St #402","description":"","date":1712941200000,"lat":40.705597,"long":-73.932655},{"id":"07958148-6940-523a-9e31-0f789ac31d0a","name":"Sharpe-Walentas Open Studios","address":"20 Jay St #720","description":"(6-9 pm)","date":1712941200000,"lat":40.704194,"long":-73.986945},{"id":"1e2f4205-9acb-554b-8c3a-6a7b9b420e3a","name":"Bob's Gallery","address":"1470 Bushwick Ave #1R","description":"(6-9 pm)","date":1712941200000,"lat":40.683205,"long":-73.907574},{"id":"a5cf0d8c-532a-552e-8527-3837b2f196bb","name":"NARS Foundation","address":"201 46th St 4th Fl","description":"","date":1712941200000,"lat":40.643012,"long":-73.998836},{"id":"4da30239-271f-584e-92dc-f520c5eb8334","name":"Picto Gallery","address":"77 Washington Ave 3rd Fl","description":"(6:30-11 pm) @ #&","date":1712941200000,"lat":40.696378,"long":-73.967215},{"id":"11e80822-25a8-541a-b071-159515030b9f","name":"Greenpoint Gallery","address":"390 McGuinness Blvd","description":"(8 pm-12 am) ¥Y","date":1712941200000,"lat":40.736339,"long":-73.952359}]},{"fieldValue":"1713027600000","totalCount":10,"nodes":[{"id":"af143583-1854-508c-b678-373a339b810a","name":"theBlanc","address":"15 E 40th St #200","description":"(4-7 pm)","date":1713027600000,"lat":40.751903,"long":-73.980582},{"id":"506e31e4-f074-5ddf-8ee6-de7462ccbec0","name":"Gallery Henoch","address":"555 W 25th St","description":"(5-7 pm)","date":1713027600000,"lat":40.750059,"long":-74.005353},{"id":"49f1ac9e-a308-55f9-bae5-00527a39ef7d","name":"Andrew Edlin Gallery","address":"212 Bowery","description":"(4-6 pm)","date":1713027600000,"lat":40.721745,"long":-73.993786},{"id":"e92df2e9-65cc-52d6-bf49-cc66f75aad0c","name":"Satellite Art Show","address":"279 Broome St","description":"(5-8 pm) ¥¢","date":1713027600000,"lat":40.718378,"long":-73.991344},{"id":"b97a2a88-f5fb-5b2c-90c7-dc66472b57da","name":"Sitting Room Gallery","address":"195 Henry St","description":"(6-10 pm)","date":1713027600000,"lat":40.713725,"long":-73.98777},{"id":"8956d627-3b13-56c2-a254-accd5eb32153","name":"DETOX GALLERY","address":"393 Broadway 2nd Fl","description":"(6-10 pm) RSVP","date":1713027600000,"lat":40.718539,"long":-74.002953},{"id":"ca767eea-9ad5-5d5c-901f-8bae61c6598b","name":"link in our bio","address":"use code THIRSTYGAL for discount na","description":"","date":1713027600000,"lat":40.748472,"long":-73.985668},{"id":"6e004d35-4c19-58d2-8e97-36f1af9d6c15","name":"Tiger Strikes Asteroid","address":"1329 Willoughby Ave","description":"","date":1713027600000,"lat":40.706198,"long":-73.921183},{"id":"90132f6a-5d26-5554-8e89-be6771febf83","name":"Living Skin","address":"61 Wyckoff Ave","description":"(closing reception) *Y","date":1713027600000,"lat":40.70576,"long":-73.92113},{"id":"4562930b-f523-5183-b40b-d922250e3066","name":"Yi Gallery","address":"254 36th St","description":"(3-6 pm)","date":1713027600000,"lat":40.656312,"long":-74.008087}]},{"fieldValue":"1713459600000","totalCount":30,"nodes":[{"id":"39a55980-e823-53b8-b480-fb68759ffe9c","name":"The Hispanic Society Museum","address":"3741 Broadway","description":"(5-7","date":1713459600000,"lat":40.833125,"long":-73.94601},{"id":"b72de4b7-5a78-5b7e-a838-d7293b9a8ff0","name":"Gray","address":"1018 Madison Ave","description":"","date":1713459600000,"lat":40.775988,"long":-73.962572},{"id":"ed6f0313-81f4-5285-94b4-3ed8473369cb","name":"Hutchinson Modern & Contemporary","address":"47 E 64th St","description":"","date":1713459600000,"lat":40.766461,"long":-73.968095},{"id":"22a87b13-7122-57bb-a1aa-07ab55399eb5","name":"Sotheby's Institute of Art","address":"570 Lexington Ave","description":"(6-9 pm)","date":1713459600000,"lat":40.757089,"long":-73.972472},{"id":"4345f704-f08a-5af1-ab8b-3bfc301dec5c","name":"Carter Burden Gallery","address":"548 W 28th St #534","description":"(5-8 pm)","date":1713459600000,"lat":40.751559,"long":-74.0042},{"id":"f59f6f03-e290-5282-a666-f7a327fc2400","name":"Spirit del Art","address":"547 W 27th St #209","description":"(closing reception)","date":1713459600000,"lat":40.751281,"long":-74.004388},{"id":"ea29639e-856f-5601-90e6-5dbd8bdb88d2","name":"Berry Campbell","address":"524 W 26th St WV","description":"","date":1713459600000,"lat":40.750028,"long":-74.00427},{"id":"36259a7d-b721-5dea-b4c9-3a31587ad8e3","name":"Albertz Benda","address":"515 W 26th St","description":"","date":1713459600000,"lat":40.750078,"long":-74.003605},{"id":"41c4302f-1b9b-5fe1-a823-7e1da8388a62","name":"Lincoln Glenn","address":"542 W 24th St W","description":"","date":1713459600000,"lat":40.749101,"long":-74.005721},{"id":"98c8dfa9-5322-596a-89a7-8ae10b6808c0","name":"Anna Zorina Gallery","address":"532 W 24th St WW ip","description":"","date":1713459600000,"lat":40.748953,"long":-74.005368},{"id":"e96151c9-c21a-5227-9348-a8e8fb192e62","name":"All Street","address":"77 E 3rd St","description":"(6-9 pm)","date":1713459600000,"lat":40.72509,"long":-73.988318},{"id":"c226ce19-24e9-5a2f-a707-343d08fa0eca","name":"The Hole","address":"312 Bowery WV","description":"","date":1713459600000,"lat":40.725087,"long":-73.992654},{"id":"24b1eb5c-23b5-5049-911b-6019327420fb","name":"Signs and Symbols","address":"249 E Houston St","description":"","date":1713459600000,"lat":40.721712,"long":-73.985383},{"id":"2a642a6b-a1e9-5f87-9669-56ba6be3c92a","name":"Krause","address":"149 Orchard St","description":"(2-6 pm)","date":1713459600000,"lat":40.720659,"long":-73.989082},{"id":"b10db361-f5b9-5bfb-9474-bc8535248a63","name":"Satellite Art Show","address":"279 Broome St","description":"(5-8 pm) W","date":1713459600000,"lat":40.718378,"long":-73.991344},{"id":"3cb79616-06f0-5d41-b39f-5547a81c727b","name":"McKenzie Fine Art","address":"55 Orchard St","description":"","date":1713459600000,"lat":40.71668,"long":-73.991168},{"id":"8b8cb363-7bc6-502c-8d3a-df0f0f4175ef","name":"Europa","address":"125 Division St","description":"","date":1713459600000,"lat":40.71437,"long":-73.99161},{"id":"148b8c84-a442-5e26-a5b1-088dca788950","name":"Blade Study","address":"17 Pike St","description":"(6-9 pm)","date":1713459600000,"lat":40.69957,"long":-73.938649},{"id":"92185629-7f82-515b-84e3-85bc366ffa42","name":"No Gallery","address":"105 Henry St #4","description":"(6-9 pm)","date":1713459600000,"lat":40.713327,"long":-73.992135},{"id":"aded131d-3cab-5d14-8ace-241006ad1bdc","name":"Lumka","address":"207 Henry St","description":"(7-9 pm)","date":1713459600000,"lat":40.712799,"long":-73.997137},{"id":"5bf98ef1-63d6-51fc-beaf-96043a7fcb0d","name":"Laurel Gitlen","address":"465 Grand St #4C","description":"","date":1713459600000,"lat":40.71124,"long":-73.95228},{"id":"21f76d16-38c8-53f0-950d-ecd2cb6e24ec","name":"Olfactory Art Keller","address":"25 Henry St","description":"(5-8 pm)","date":1713459600000,"lat":40.712995,"long":-73.996585},{"id":"cfd5c0db-41ed-54f4-ad00-eab13a34e6ad","name":"Allouche Gallery","address":"77 Mercer St W","description":"","date":1713459600000,"lat":40.722679,"long":-74.001107},{"id":"c6aabcc5-a676-5ae1-9aff-13e7069e9ad5","name":"June Kelly","address":"166 Mercer St","description":"(5-7 pm)","date":1713459600000,"lat":40.725332,"long":-73.997857},{"id":"add85931-1663-5ce9-b7aa-5b3fbe1b688c","name":"RainRain","address":"110 Lafayette St #201 Ip w %","description":"","date":1713459600000,"lat":40.718147,"long":-74.00107},{"id":"35325b3c-1071-5170-862b-bd42c3be963a","name":"Canada","address":"61 Lispenard St","description":"","date":1713459600000,"lat":40.71953,"long":-74.00263},{"id":"3250358a-bba4-521c-883d-d1e115acefac","name":"Revolving Store","address":"293 Church St","description":"(5-8 pm) W 4%","date":1713459600000,"lat":40.719086,"long":-74.0044},{"id":"d01d6d4f-0e21-5062-9cdf-3349ada89695","name":"81 Leonard","address":"81 Leonard St","description":"","date":1713459600000,"lat":40.717406,"long":-74.004983},{"id":"cbba8c57-18f0-56ad-b32b-d622679fe5c9","name":"Marlow & Daughters","address":"95 Broadway","description":"(7-9 pm)","date":1713459600000,"lat":40.71062,"long":-73.965057},{"id":"d4735c91-d750-551e-97f0-3d1bf37012dd","name":"Welancora Gallery","address":"33 Herkimer St","description":"","date":1713459600000,"lat":40.679974,"long":-73.951992}]}]}}}